City_ID,City,Lat,Lng,Max Temp,Humidity,Cloudiness,Wind Speed,Country,Date
0,puerto ayacucho,5.6639,-67.6236,30.28,67,38,1.32,VE,1724947387
1,alofi,-19.0595,-169.9187,18.94,94,20,2.57,NU,1724947388
2,adamstown,-25.066,-130.1015,18.94,71,8,4.54,PN,1724947390
3,muli,2.9167,73.5667,28.4,75,16,4.08,MV,1724947391
4,lazaro cardenas,17.9583,-102.2,29.31,70,70,0.75,MX,1724947287
5,bredasdorp,-34.5322,20.0403,9.25,69,42,2.78,ZA,1724947393
6,mitu,1.1983,-70.1733,30.85,59,17,0.61,CO,1724947394
7,west island,-12.1568,96.8225,25.99,78,100,9.77,CC,1724947395
8,belyy yar,53.6039,91.3903,15.94,67,0,2.0,RU,1724947396
9,altay,47.8667,88.1167,14.5,75,100,1.72,CN,1724947397
10,albany,42.6001,-73.9662,20.81,67,85,0.28,US,1724947208
11,waitangi,-43.9535,-176.5597,13.23,94,99,6.26,NZ,1724947399
12,dazuocun,24.8862,118.9643,27.28,88,75,1.68,CN,1724947400
13,umba,66.6871,34.3429,15.78,67,65,1.54,RU,1724947401
14,anshun,26.25,105.9333,19.67,94,2,1.36,CN,1724947402
15,mikun',62.3547,50.0771,14.14,67,100,2.56,RU,1724947404
16,ilulissat,69.2167,-51.1,4.01,75,100,4.12,GL,1724947405
17,edinburgh of the seven seas,-37.0676,-12.3116,12.7,81,22,13.48,SH,1724947406
18,hawaiian paradise park,19.5933,-154.9731,22.16,99,2,2.97,US,1724947408
19,cabo san lucas,22.8909,-109.9124,34.17,46,0,2.57,MX,1724947409
20,nemuro,43.3236,145.575,17.96,100,100,0.91,JP,1724947410
21,shimoda,34.6667,138.95,26.25,93,100,5.09,JP,1724947411
22,la glacerie,49.6052,-1.5819,17.94,72,0,4.12,FR,1724947412
23,georgetown,5.4112,100.3354,28.96,87,20,1.03,MY,1724947303
24,iqaluit,63.7506,-68.5145,6.85,87,100,6.17,CA,1724947213
25,pisco,-13.7,-76.2167,18.03,72,100,4.12,PE,1724947415
26,masterton,-40.9597,175.6575,10.91,67,93,6.65,NZ,1724947416
27,baglung,28.2719,83.5898,21.01,97,87,0.7,NP,1724947418
28,blackmans bay,-43.0167,147.3167,10.41,89,100,2.68,AU,1724947419
29,roslavl',53.9528,32.8639,23.0,65,5,2.78,RU,1724947420
30,viransehir,37.2353,39.7631,34.7,18,0,3.84,TR,1724947421
31,grytviken,-54.2811,-36.5092,1.24,98,100,1.98,GS,1724947422
32,las trojes,14.0667,-85.9833,27.01,66,35,2.14,HN,1724947423
33,lihue,21.9789,-159.3672,24.09,94,5,3.59,US,1724947424
34,luderitz,-26.6481,15.1594,16.94,49,0,10.61,NA,1724947425
35,boca suno,-0.7167,-77.1333,32.88,39,2,0.76,EC,1724947426
36,papatowai,-46.5619,169.4708,7.15,78,11,4.12,NZ,1724947427
37,quepos,9.4236,-84.1652,29.41,73,91,1.95,CR,1724947428
38,gracemere,-23.4333,150.45,18.54,100,0,2.57,AU,1724947429
39,port mathurin,-19.6833,63.4167,21.67,69,0,13.41,MU,1724947430
40,port-aux-francais,-49.35,70.2167,4.04,78,98,18.61,TF,1724947432
41,jamestown,42.097,-79.2353,25.57,78,100,1.54,US,1724947433
42,tolanaro,-25.0319,46.9987,24.04,73,0,11.83,MG,1724947434
43,bethel,41.3712,-73.414,23.36,70,37,2.03,US,1724947383
44,yellowknife,62.456,-114.3525,13.56,91,75,6.17,CA,1724947354
45,howrah,22.5892,88.3103,30.0,84,40,0.0,IN,1724947437
46,selendi,38.7444,28.8678,28.88,34,7,4.86,TR,1724947438
47,ushuaia,-54.8,-68.3,7.81,66,40,3.6,AR,1724947439
48,whitehorse,60.7161,-135.0538,9.43,70,75,4.63,CA,1724947255
49,mount gambier,-37.8333,140.7667,13.04,92,100,8.84,AU,1724947441
50,sanibel,26.449,-82.0223,32.79,73,11,2.24,US,1724947442
51,tiksi,71.6872,128.8694,1.98,85,3,2.73,RU,1724947443
52,isafjordur,66.0755,-23.124,11.02,62,40,5.66,IS,1724947445
53,whakatane,-37.9585,176.9854,14.73,99,100,2.93,NZ,1724947446
54,holualoa,19.6228,-155.9522,24.37,77,20,1.54,US,1724947447
55,cootamundra,-34.65,148.0333,5.81,85,37,3.49,AU,1724947448
56,benguela,-12.5763,13.4055,22.85,74,47,4.74,AO,1724947449
57,shitanjing,39.2342,106.3439,24.94,59,37,2.97,CN,1724947450
58,saint-philippe,-21.3585,55.7679,21.31,82,44,7.32,RE,1724947451
59,teaca,46.9167,24.5167,21.59,61,100,1.08,RO,1724947452
60,saipan,15.1355,145.701,29.39,79,40,6.17,MP,1724947453
61,hermanus,-34.4187,19.2345,11.56,63,13,5.0,ZA,1724947454
62,margaret river,-33.95,115.0667,12.81,67,50,8.89,AU,1724947455
63,grand falls-windsor,48.9332,-55.6649,10.43,91,100,4.48,CA,1724947456
64,road town,18.4167,-64.6167,32.02,70,75,4.12,VG,1724947371
65,tura,25.5198,90.2201,25.58,89,13,1.17,IN,1724947458
66,katsuura,35.1333,140.3,26.53,90,100,6.62,JP,1724947460
67,sidhi,24.4167,81.8833,27.25,77,100,2.4,IN,1724947461
68,donetsk,48.0,37.8,27.02,34,100,5.94,UA,1724947462
69,kodiak,57.79,-152.4072,8.73,93,100,2.06,US,1724947463
70,chonchi,-42.6128,-73.8092,11.58,62,9,2.19,CL,1724947317
71,puerto natales,-51.7236,-72.4875,8.25,53,75,3.09,CL,1724947465
72,dampit,-8.2116,112.7493,18.49,90,65,1.55,ID,1724947466
73,naifaru,5.4444,73.3657,28.32,77,99,4.56,MV,1724947467
74,ondjiva,-17.0667,15.7333,32.05,7,2,2.56,AO,1724947468
75,buloh kasap,2.5536,102.764,23.99,92,83,1.89,MY,1724947469
76,gubkinskiy,64.434,76.5026,13.91,75,100,7.77,RU,1724947470
77,urangan,-25.3,152.9,20.36,83,0,4.21,AU,1724947471
78,invercargill,-46.4,168.35,6.68,85,41,3.13,NZ,1724947473
79,usogorsk,63.4106,48.6872,14.69,71,96,2.88,RU,1724947474
80,kununurra,-15.7667,128.7333,21.99,83,10,0.0,AU,1724947475
81,ulaangom,49.9811,92.0667,18.73,46,100,1.66,MN,1724947476
82,hamilton,39.1834,-84.5333,33.21,58,0,1.79,US,1724947477
83,mega,4.05,38.3,19.74,55,24,5.54,ET,1724947478
84,fortuna,40.5982,-124.1573,13.51,100,0,0.0,US,1724947479
85,kapuskasing,49.4169,-82.4331,15.0,58,40,3.6,CA,1724947480
86,az zawr,29.4425,48.2747,40.01,38,0,7.34,KW,1724947481
87,afaahiti,-17.75,-149.2833,24.45,85,42,4.78,PF,1724947482
88,ryotsu-minato,38.0833,138.4333,23.37,93,100,2.28,JP,1724947483
89,dese,11.1333,39.6333,14.59,81,81,1.16,ET,1724947484
90,stanley,54.868,-1.6985,18.06,60,20,5.66,GB,1724947485
91,cidade velha,14.9167,-23.6167,32.26,51,0,5.66,CV,1724947487
92,shiprock,36.7855,-108.687,23.47,46,100,1.27,US,1724947488
93,great falls,47.5002,-111.3008,17.6,47,0,4.12,US,1724947205
94,atafu village,-8.5421,-172.5159,27.73,78,19,8.89,TK,1724947490
95,acapulco de juarez,16.8634,-99.8901,29.9,79,75,1.54,MX,1724947433
96,pimentel,-6.8367,-79.9342,18.16,77,100,5.14,PE,1724947492
97,qaqortoq,60.7167,-46.0333,5.03,97,100,5.33,GL,1724947494
98,dunedin,-45.8742,170.5036,9.89,57,48,0.89,NZ,1724947269
99,prado,-17.3411,-39.2208,23.98,57,99,4.06,BR,1724947496
100,el haouaria,37.05,11.0144,30.01,59,0,4.11,TN,1724947498
101,constantia,44.1833,28.65,23.38,66,94,6.89,RO,1724947499
102,shimanovsk,52.0,127.7,14.62,74,83,1.48,RU,1724947501
103,tazovsky,67.4667,78.7,9.48,82,100,4.46,RU,1724947502
104,east london,-33.0153,27.9116,14.52,54,20,3.6,ZA,1724947503
105,miyako,39.6367,141.9525,22.5,92,100,1.98,JP,1724947504
106,stowbtsy,53.4785,26.7434,25.8,52,13,2.69,BY,1724947505
107,thohoyandou,-22.9456,30.485,16.36,80,98,5.87,ZA,1724947500
108,keren,15.7778,38.4581,21.25,80,96,1.26,ER,1724947507
109,richland center,43.3347,-90.3868,21.99,85,100,4.63,US,1724947508
110,mafinga,-7.25,35.0667,26.76,40,44,6.4,TZ,1724947509
111,semera,11.501,41.201,33.8,36,15,2.24,ET,1724947510
112,bhimunipatnam,17.8833,83.4333,26.73,86,100,1.56,IN,1724947511
113,sidi salim,31.271,30.7867,28.25,59,0,4.28,EG,1724947513
114,san rafael,-34.6177,-68.3301,12.6,44,100,5.34,AR,1724947495
115,ugoofaaru,5.6667,73.0,28.24,78,78,4.47,MV,1724947515
116,xining,36.6167,101.7667,19.37,85,100,1.56,CN,1724947516
117,trashigang,27.3331,91.5542,19.81,94,43,1.32,BT,1724947517
118,khandyga,62.6667,135.6,4.72,97,95,2.84,RU,1724947518
119,carlos chagas,-17.7031,-40.7664,27.18,36,72,5.91,BR,1724947367
120,bilibino,68.0546,166.4372,0.99,83,95,1.23,RU,1724947520
121,tchibanga,-2.85,11.0333,24.33,75,100,2.92,GA,1724947523
122,lusambo,-4.9667,23.45,34.02,31,67,1.32,CD,1724947524
123,luocheng,29.3848,104.0286,26.07,92,52,2.43,CN,1724947527
124,san patricio,28.017,-97.5169,31.97,54,9,3.02,US,1724947528
125,klyuchi,52.2667,79.1667,17.18,55,75,4.43,RU,1724947529
126,grootfontein,-19.5667,18.1167,27.8,10,0,1.75,NA,1724947530
127,college,64.8569,-147.8028,9.69,95,75,2.57,US,1724947531
128,udachny,66.4167,112.4,9.72,53,78,2.69,RU,1724947532
129,goure,13.9835,10.2704,34.4,39,100,7.37,NE,1724947533
130,port elizabeth,-33.918,25.5701,13.16,80,40,5.14,ZA,1724947495
131,sao joao do piaui,-8.3581,-42.2467,34.8,19,1,5.78,BR,1724947535
132,santa rosalia,27.3167,-112.2833,32.63,36,1,1.44,MX,1724947536
133,tsiombe,-25.3,45.4833,23.66,59,0,3.11,MG,1724947537
134,ribeira grande,38.5167,-28.7,26.22,65,40,4.12,PT,1724947539
135,aripuana,-9.1667,-60.6333,37.76,17,54,2.73,BR,1724947287
136,quang ngai,15.1167,108.8,25.24,85,17,2.14,VN,1724947542
137,mildura,-34.2,142.15,20.04,43,2,12.98,AU,1724947371
138,mount pearl,47.5166,-52.7813,14.29,92,100,12.35,CA,1724947544
139,baruun-urt,46.6806,113.2792,14.38,80,0,3.15,MN,1724947545
140,banfora,10.6333,-4.7667,27.4,78,100,3.21,BF,1724947546
141,taikang,46.8333,124.4167,18.45,93,100,1.55,CN,1724947547
142,plasnica,41.4672,21.1231,24.17,51,84,0.55,MK,1724947548
143,petropavlovsk-kamchatsky,53.0452,158.6483,10.33,87,0,5.0,RU,1724947549
144,uzgen,40.7699,73.3007,19.58,46,99,1.11,KG,1724947550
145,puerto ayora,-0.7393,-90.3518,19.19,100,95,2.24,EC,1724947552
146,touros,-5.1989,-35.4608,28.53,56,51,9.33,BR,1724947550
147,sao raimundo das mangabeiras,-7.0219,-45.4811,35.66,21,3,4.45,BR,1724947554
148,alice springs,-23.7,133.8833,21.75,30,3,2.57,AU,1724947555
149,chibougamau,49.9168,-74.3659,15.79,48,0,1.54,CA,1724947556
150,olonkinbyen,70.9221,-8.7187,6.28,91,100,0.5,SJ,1724947557
151,bodaybo,57.8506,114.1933,8.06,90,80,1.27,RU,1724947558
152,shenjiamen,29.9576,122.298,26.88,86,1,1.13,CN,1724947559
153,bulgan,48.8125,103.5347,10.96,89,5,0.4,MN,1724947560
154,san andres,12.5847,-81.7006,33.01,66,40,6.17,CO,1724947561
155,urucara,-2.5364,-57.76,38.08,24,0,2.87,BR,1724947562
156,kourou,5.1552,-52.6478,31.85,56,91,3.71,GF,1724947564
157,nova sintra,14.8667,-24.7167,26.61,80,66,5.42,CV,1724947565
158,kavaratti,10.5669,72.642,27.13,86,75,5.32,IN,1724947566
159,cangucu,-31.395,-52.6756,18.04,69,99,0.25,BR,1724947567
160,sena madureira,-9.0656,-68.6569,38.75,24,0,0.64,BR,1724947568
161,mersa matruh,31.3525,27.2453,30.11,66,0,3.6,EG,1724947569
162,vanimo,-2.6741,141.3028,25.35,90,68,0.99,PG,1724947570
163,sinabang,2.4803,96.3801,25.99,85,100,2.21,ID,1724947571
164,voranava,54.1483,25.3131,25.5,58,53,3.74,BY,1724947572
165,naze,28.3667,129.4833,26.51,90,83,3.73,JP,1724947573
166,tambopata,-12.7333,-69.1833,31.94,51,0,1.54,PE,1724947574
167,isangel,-19.55,169.2667,20.02,71,16,2.6,VU,1724947575
168,christchurch,-43.5333,172.6333,11.11,50,13,3.6,NZ,1724947302
169,al kharijah,25.4514,30.5464,38.92,14,10,8.29,EG,1724947577
170,thompson,55.7435,-97.8558,15.09,100,100,1.03,CA,1724947328
171,manismata,-2.4667,111.0333,23.1,97,100,0.89,ID,1724947580
172,olinda,-8.0089,-34.8553,28.85,58,40,8.23,BR,1724947581
173,gobabis,-22.45,18.9667,25.89,11,0,2.63,NA,1724947582
174,port alfred,-33.5906,26.891,12.88,72,25,0.89,ZA,1724947583
175,tregunc,47.85,-3.85,21.33,59,84,3.83,FR,1724947585
176,kuala terengganu,5.3302,103.1408,27.97,89,20,1.03,MY,1724947586
177,san borja,-14.8167,-66.85,36.15,23,0,2.67,BO,1724947587
178,dzuunharaa,48.8523,106.4579,11.58,72,8,1.15,MN,1724947588
179,kasane,-17.8167,25.15,34.05,8,0,1.54,BW,1724947590
180,mancora,-4.1078,-81.0475,24.47,62,3,3.5,PE,1724947591
181,savanna-la-mar,18.219,-78.1332,32.18,54,9,1.67,JM,1724947592
182,hithadhoo,-0.6,73.0833,28.67,76,43,6.55,MV,1724947593
183,letterkenny,54.95,-7.7333,14.71,66,42,5.36,IE,1724947594
184,port lincoln,-34.7333,135.8667,15.69,61,100,9.49,AU,1724947372
185,cabedelo,-6.9811,-34.8339,29.37,67,28,9.73,BR,1724947342
186,south hedland,-20.4089,118.5983,21.96,83,5,2.06,AU,1724947597
187,utrik,11.2278,169.8474,28.38,78,23,6.05,MH,1724947598
188,kone,-21.0595,164.8658,16.33,89,0,1.8,NC,1724947599
189,marsh harbour,26.5412,-77.0636,29.03,71,76,6.19,BS,1724947601
190,suhut,38.5311,30.5458,25.64,27,45,7.01,TR,1724947602
191,kalmunai,7.4167,81.8167,28.38,72,100,4.57,LK,1724947605
192,tolga,34.7222,5.3785,36.23,24,0,3.27,DZ,1724947606
193,east falmouth,41.5784,-70.5586,23.05,64,0,7.72,US,1724947607
194,bilokurakyne,49.5341,38.7307,27.96,16,69,4.16,UA,1724947608
195,papao,-17.75,-149.55,24.82,79,48,2.02,PF,1724947609
196,santanyi,39.3546,3.1291,26.67,63,81,4.74,ES,1724947610
197,duba,27.3513,35.6901,32.12,60,1,4.71,SA,1724947611
198,castro alves,-12.7656,-39.4283,26.25,59,77,7.27,BR,1724947612
199,brandon,27.9378,-82.2859,33.44,74,75,3.6,US,1724947333
200,samba,32.5667,75.1167,25.7,84,82,0.89,IN,1724947614
201,puerto bolivar,-3.2667,-79.9833,25.0,73,75,2.57,EC,1724947615
202,kaffrine,14.1059,-15.5508,27.59,83,100,5.31,SN,1724947616
203,benton,36.3334,-94.3335,32.09,61,75,2.06,US,1724947617
204,diego de almagro,-26.3667,-70.05,15.39,35,19,3.96,CL,1724947619
205,novo aripuana,-5.1206,-60.3797,39.67,22,28,1.09,BR,1724947504
206,verkhnevilyuysk,63.4453,120.3167,6.15,81,97,1.74,RU,1724947621
207,iskateley,67.6803,53.1512,7.26,84,91,5.07,RU,1724947622
208,uturoa,-16.7333,-151.4333,26.11,82,10,4.65,PF,1724947623
209,tiverton,50.9,-3.4833,20.22,54,98,2.24,GB,1724947624
210,ouddorp,51.8117,3.9347,21.1,61,36,3.36,NL,1724947625
211,melfort,52.8667,-104.6177,16.56,60,29,5.65,CA,1724947626
212,shaowu,27.3409,117.4831,24.54,92,62,0.45,CN,1724947627
213,ebebiyin,2.1511,11.3353,22.68,93,80,2.32,GQ,1724947628
214,kabansk,52.0486,106.6528,11.7,81,5,2.08,RU,1724947629
215,vorkuta,67.5,64.0,7.29,78,100,5.68,RU,1724947630
216,new norfolk,-42.7826,147.0587,11.07,93,100,4.55,AU,1724947631
217,livingston,55.9029,-3.5226,15.49,70,40,6.69,GB,1724947633
218,mizdah,31.4451,12.9801,32.65,31,1,5.66,LY,1724947634
219,wailua homesteads,22.0669,-159.378,25.44,90,75,4.12,US,1724947635
220,tazacorte,28.629,-17.9293,25.54,78,20,3.6,ES,1724947636
221,galeana,24.8333,-100.0667,22.28,62,4,1.04,MX,1724947637
222,carnarvon,-24.8667,113.6333,19.32,74,64,7.64,AU,1724947638
223,anadyr,64.75,177.4833,6.28,100,100,2.0,RU,1724947639
224,santa ana de yacuma,-13.75,-65.4333,33.97,33,8,4.12,BO,1724947640
225,nuuk,64.1835,-51.7216,6.34,93,75,4.63,GL,1724947641
226,velizh,55.6056,31.1967,22.6,75,86,1.36,RU,1724947642
227,nuku'alofa,-21.1333,-175.2,21.19,88,20,2.57,TO,1724947644
228,tongchuanshi,35.0806,109.0897,22.27,82,32,2.93,CN,1724947645
229,novovorontsovka,47.5004,33.9175,28.25,42,99,3.0,UA,1724947646
230,colonia,50.9333,6.95,29.98,47,0,6.17,DE,1724947593
231,la ronge,55.1001,-105.2842,15.14,88,100,1.54,CA,1724947393
232,tolbazy,54.0241,55.8825,16.49,73,46,1.44,RU,1724947649
233,goba,7.0167,39.9833,12.08,89,64,1.34,ET,1724947650
234,tsimasham,27.0989,89.536,12.84,91,16,2.24,BT,1724947651
235,xingcheng,40.6167,120.7167,21.57,92,1,4.34,CN,1724947652
236,enewetak,11.3474,162.3373,28.35,76,86,2.72,MH,1724947653
237,tuzha,57.6062,47.936,16.16,62,31,1.83,RU,1724947654
238,selfoss,63.9331,-20.9971,12.8,60,5,4.52,IS,1724947655
239,amurzet,47.6967,131.0981,19.65,94,100,1.29,RU,1724947657
240,callao,-12.0667,-77.15,19.84,72,75,4.63,PE,1724947658
241,ceeldheer,3.8488,47.1806,25.92,79,22,9.19,SO,1724947659
242,port augusta,-32.5,137.7667,17.74,43,0,3.8,AU,1724947660
243,nhamunda,-2.1861,-56.7131,38.49,24,3,2.59,BR,1724947661
244,keflavik,64.0049,-22.5624,10.24,71,75,5.66,IS,1724947662
245,emerald,-23.5333,148.1667,19.79,60,0,1.96,AU,1724947663
246,saint-francois,46.4154,3.9054,32.03,39,0,1.54,FR,1724947664
247,san antonio de pale,-1.4014,5.6325,24.02,77,95,4.12,GQ,1724947665
248,jining,35.405,116.5814,23.18,87,0,2.01,CN,1724947666
249,hinton,53.4001,-117.5857,14.93,56,50,2.78,CA,1724947375
250,anloga,5.7947,0.8973,26.0,79,49,6.92,GH,1724947669
251,priargunsk,50.3691,119.1012,13.94,88,100,1.65,RU,1724947671
252,srivardhan,18.0333,73.0167,26.64,86,9,4.38,IN,1724947672
253,flying fish cove,-10.4217,105.6791,23.82,83,75,5.14,CX,1724947673
254,aitape,-3.1374,142.3475,24.67,88,100,2.02,PG,1724947674
255,ar ruways,24.1103,52.7306,32.58,79,34,4.64,AE,1724947675
256,acarau,-2.8856,-40.12,31.54,50,2,9.39,BR,1724947676
257,aasiaat,68.7098,-52.8699,2.19,88,100,2.65,GL,1724947677
258,aksu,41.1231,80.2644,21.4,58,100,3.48,CN,1724947678
259,boende,-0.2167,20.8667,28.77,59,97,1.08,CD,1724947679
260,fale old settlement,-9.3852,-171.2468,27.81,78,3,8.99,TK,1724947680
261,shizunai-furukawacho,42.3339,142.3669,22.0,93,100,3.63,JP,1724947681
262,medvezh'yegorsk,62.9167,34.4667,19.47,65,25,0.53,RU,1724947682
263,longyearbyen,78.2186,15.6401,9.91,71,75,3.09,SJ,1724947684
264,lerwick,60.1545,-1.1494,11.81,88,100,9.05,GB,1724947685
265,salinopolis,-0.6136,-47.3561,28.95,68,60,6.09,BR,1724947686
266,aykhal,66.0,111.5,5.15,73,19,1.57,RU,1724947644
267,fryazevo,55.7319,38.4628,22.82,58,10,2.21,RU,1724947688
268,porto novo,6.4965,2.6036,26.56,74,97,4.22,BJ,1724947689
269,coquimbo,-29.9533,-71.3436,13.85,67,75,3.6,CL,1724947547
270,klaksvik,62.2266,-6.589,11.03,85,48,2.99,FO,1724947574
271,manokwari,-0.8667,134.0833,25.88,82,48,1.38,ID,1724947692
272,salekhard,66.53,66.6019,7.8,71,44,4.18,RU,1724947693
273,tucuma,-0.1833,-50.05,30.02,62,84,4.0,BR,1724947694
274,talnakh,69.4865,88.3972,12.84,92,100,4.38,RU,1724947695
275,bayanhongor,46.7167,100.1167,13.01,42,78,1.57,MN,1724947696
276,schweizer-reneke,-27.1887,25.3293,13.35,11,0,4.17,ZA,1724947698
277,laibin,23.7,109.2667,28.25,80,49,0.86,CN,1724947699
278,mahina,-17.5065,-149.489,24.87,78,20,2.57,PF,1724947700
279,saldanha,-33.0117,17.9442,11.41,58,2,7.81,ZA,1724947701
280,akureyri,65.6835,-18.0878,11.09,57,84,1.56,IS,1724947702
281,st. john's,47.5649,-52.7093,14.75,91,100,11.18,CA,1724947440
282,ketchikan,55.3422,-131.6461,12.65,94,75,2.57,US,1724947704
283,tarawa,1.419,172.984,29.05,79,40,6.17,KI,1724947705
284,egilsstadir,65.2653,-14.3948,9.17,74,99,3.06,IS,1724947706
285,nogliki,51.8333,143.1667,16.98,84,100,3.74,RU,1724947707
286,goundam,16.4145,-3.6708,35.69,33,100,3.78,ML,1724947708
287,amga,60.8953,131.9608,7.69,95,90,1.76,RU,1724947709
288,ouarzazat,30.9189,-6.8934,37.77,9,36,8.34,MA,1724947711
289,ancud,-41.8697,-73.8203,10.31,63,2,2.86,CL,1724947712
290,zhangjiakou,40.81,114.8794,20.1,68,1,1.48,CN,1724947713
291,makurazaki,31.2667,130.3167,24.68,87,93,13.01,JP,1724947714
292,susuman,62.7833,148.1667,4.5,97,100,0.82,RU,1724947715
293,ntoum,0.3833,9.7833,27.66,65,98,3.71,GA,1724947716
294,zapolyarnyy,69.4154,30.8136,14.9,63,98,3.17,RU,1724947717
295,kayangel,8.0823,134.7173,28.14,79,100,2.65,PW,1724947718
296,burao,9.5221,45.5336,28.95,41,92,8.18,SO,1724947719
297,santana,-0.0583,-51.1817,34.1,59,40,4.63,BR,1724947576
298,grande prairie,55.1667,-118.8027,18.32,50,27,6.77,CA,1724947619
299,sarikei,2.1167,111.5167,23.12,98,100,0.86,MY,1724947722
300,vorgashor,67.5833,63.95,6.93,79,100,5.91,RU,1724947723
301,ostroda,53.6967,19.9649,30.88,34,0,2.27,PL,1724947725
302,harstad,68.799,16.5293,17.56,74,100,10.73,NO,1724947726
303,lethem,3.3803,-59.7968,29.4,64,94,0.56,GY,1724947727
304,mana,5.6592,-53.7767,31.13,60,90,4.06,GF,1724947728
305,camocim,-2.9022,-40.8411,32.18,48,2,7.37,BR,1724947729
306,lengshuitan,26.4111,111.5956,24.49,82,20,1.43,CN,1724947730
307,atherton,53.5237,-2.4935,19.58,67,38,1.34,GB,1724947731
308,floro,61.5996,5.0328,13.98,88,75,4.63,NO,1724947732
309,vila velha,-20.3297,-40.2925,25.97,66,40,4.63,BR,1724947733
310,quellon,-43.1167,-73.6167,9.4,71,5,5.56,CL,1724947734
311,sao joao da barra,-21.6403,-41.0511,25.05,59,58,4.95,BR,1724947510
312,navia,43.5354,-6.7194,19.52,97,99,3.11,ES,1724947736
313,orlovskiy,46.8714,42.0592,28.97,19,0,6.26,RU,1724947739
314,gurupa,-1.405,-51.64,36.7,33,35,1.39,BR,1724947740
315,warrnambool,-38.3833,142.4833,15.27,83,98,14.16,AU,1724947741
316,glubokoye,50.1456,82.3114,10.86,82,99,1.0,KZ,1724947742
317,cockburn town,21.4612,-71.1419,28.68,79,24,7.86,TC,1724947743
318,marka,1.7159,44.7717,24.94,86,14,6.25,SO,1724947744
319,yoloten,37.2989,62.3597,24.26,26,0,5.11,TM,1724947746
320,ust-nera,64.5667,143.2,4.2,100,100,1.86,RU,1724947747
321,qarazhal,48.0078,70.7903,19.79,34,1,2.25,KZ,1724947628
322,al hufuf,25.3646,49.5653,40.19,13,13,7.2,SA,1724947749
323,zuunmod,47.7069,106.9528,8.57,84,0,1.0,MN,1724947750
324,lamu,-2.2717,40.902,24.8,82,34,6.9,KE,1724947752
325,vilyuchinsk,52.9306,158.4028,11.15,83,99,1.56,RU,1724947753
326,happy valley-goose bay,53.3168,-60.3315,15.78,40,18,4.43,CA,1724947754
327,badger,64.8,-147.5333,10.14,95,75,2.57,US,1724947755
328,vangviang,18.9333,102.45,21.98,98,95,0.81,LA,1724947756
329,al ghayzah,16.2079,52.176,26.2,82,19,6.36,YE,1724947757
330,bethanie,-26.4833,17.15,19.77,18,0,5.99,NA,1724947758
331,praia da vitoria,38.7333,-27.0667,23.18,69,100,2.0,PT,1724947759
332,sitka,57.0531,-135.33,12.94,82,100,4.12,US,1724947761
333,dezhou,37.4486,116.2925,23.29,80,0,2.3,CN,1724947763
334,remire-montjoly,4.9167,-52.2667,25.02,94,75,2.06,GF,1724947496
335,namibe,-15.1961,12.1522,19.75,80,14,5.0,AO,1724947766
336,santa terezinha,-29.9002,-50.0904,15.95,80,99,2.25,BR,1724947767
337,kendari,-3.945,122.4989,23.59,87,79,1.1,ID,1724947768
338,torres,-29.3353,-49.7269,18.26,72,69,3.13,BR,1724947769
339,lata,40.1629,-8.3327,27.49,51,2,4.93,PT,1724947770
340,kingston,17.997,-76.7936,32.87,64,5,2.31,JM,1724947722
341,rebola,3.7167,8.8333,23.61,83,99,3.58,GQ,1724947772
342,chateaudun,48.0833,1.3333,24.51,51,100,2.79,FR,1724947484
343,betio village,1.358,172.9211,29.02,79,100,7.0,KI,1724947774
344,langepas,61.2544,75.2124,12.67,85,100,5.61,RU,1724947776
345,juan griego,11.0817,-63.9655,36.07,52,53,4.63,VE,1724947777
346,jerseyville,39.12,-90.3285,31.9,61,50,2.75,US,1724947778
347,naha,26.2125,127.6811,29.95,90,20,6.69,JP,1724947779
348,abilene,32.4487,-99.7331,28.59,61,20,4.63,US,1724947549
349,avarua,-21.2078,-159.775,23.03,78,100,2.06,CK,1724947781
350,saint-georges,12.0564,-61.7485,28.63,79,32,3.44,GD,1724947782
351,bubaque,11.2833,-15.8333,27.09,79,100,4.24,GW,1724947783
352,isoka,-10.1606,32.6335,25.33,28,76,2.49,ZM,1724947784
353,humberto de campos,-2.5983,-43.4611,36.91,28,63,0.58,BR,1724947785
354,arraial do cabo,-22.9661,-42.0278,24.98,53,0,7.2,BR,1724947553
355,regina,50.4501,-104.6178,11.69,90,75,4.02,CA,1724947514
356,djibouti,11.5,42.5,34.56,36,91,5.64,DJ,1724947788
357,la passe,45.5549,-0.8967,22.5,70,100,0.98,FR,1724947789
358,las tablas,7.7667,-80.2833,29.19,74,100,5.07,PA,1724947791
359,aban,56.67,96.06,10.91,93,35,0.75,RU,1724947792
360,nishinoomote,30.7333,131.0,27.94,85,91,12.79,JP,1724947793
361,dudinka,69.4058,86.1778,11.39,92,100,2.14,RU,1724947794
362,essaouira,31.5125,-9.77,22.38,76,0,11.88,MA,1724947795
363,agbabu,6.5886,4.8343,25.77,84,100,2.17,NG,1724947796
364,kittila,67.6647,24.8936,18.67,63,0,3.6,FI,1724947797
365,fort bragg,35.139,-79.006,34.34,56,0,2.57,US,1724947798
366,aras-asan,8.8908,126.3033,25.31,83,100,2.96,PH,1724947799
367,hengchun,22.0042,120.7439,29.28,77,93,2.84,TW,1724947800
368,san juan de miraflores,-12.1629,-76.9635,18.98,76,91,4.9,PE,1724947801
369,kongolo,-5.3833,27.0,33.42,31,83,2.45,CD,1724947802
370,mugia,43.1041,-9.2179,19.95,78,12,8.51,ES,1724947803
371,la mira,18.035,-102.3266,29.39,68,48,0.04,MX,1724947806
372,la'ie,21.6477,-157.9253,25.62,90,9,2.24,US,1724947807
373,yuzhno-kurilsk,44.0306,145.8556,18.53,99,100,2.0,RU,1724947808
374,port macquarie,-31.4333,152.9167,13.93,99,1,1.34,AU,1724947809
375,tidjikja,18.5564,-11.4271,38.43,30,6,3.34,MR,1724947810
376,alotau,-10.3069,150.4462,22.25,94,40,1.45,PG,1724947812
377,sechura,-5.5569,-80.8222,22.5,59,46,5.87,PE,1724947813
378,anna regina,7.2644,-58.5077,31.59,57,11,3.88,GY,1724947814
379,sangmelima,2.9333,11.9833,22.83,92,93,1.98,CM,1724947815
380,athni,16.7333,75.0667,23.16,87,90,5.75,IN,1724947817
381,yershov,51.3513,48.2766,25.55,27,94,1.38,RU,1724947818
382,severo-yeniseyskiy,60.3725,93.0408,10.03,97,39,2.23,RU,1724947819
383,capitao poco,-1.7464,-47.0594,35.22,32,35,3.18,BR,1724947820
384,svetlyy,54.675,20.1347,29.86,47,0,0.5,RU,1724947821
385,mazyr,52.0495,29.2456,28.7,28,58,3.05,BY,1724947822
386,lambarene,-0.7001,10.2406,26.48,68,100,2.23,GA,1724947823
387,bel air riviere seche,-20.2542,57.7453,21.49,74,75,9.52,MU,1724947824
388,ormara,25.2088,64.6357,26.92,88,62,3.01,PK,1724947544
389,cam ranh,11.9214,109.1591,27.98,83,40,1.03,VN,1724947826
390,haiku-pauwela,20.9219,-156.3051,23.91,92,40,5.14,US,1724947827
391,flin flon,54.7682,-101.865,17.94,71,100,1.92,CA,1724947828
392,sakaiminato,35.55,133.2333,26.29,87,100,6.34,JP,1724947830
393,mahibadhoo,3.7833,72.9667,28.35,77,54,4.26,MV,1724947831
394,zhosaly,45.4878,64.0781,24.79,23,0,3.94,KZ,1724947754
395,punta arenas,-53.15,-70.9167,7.06,76,0,9.77,CL,1724947836
396,mejit,10.2753,170.8646,28.09,79,77,5.55,MH,1724947837
397,az zubayr,30.3945,47.7011,38.92,19,0,6.69,IQ,1724947838
398,sosnovo-ozerskoye,52.5249,111.5418,7.98,89,4,3.62,RU,1724947839
399,halifax,44.6453,-63.5724,20.83,62,23,6.71,CA,1724947840
400,sarangani,5.4033,125.4636,27.3,77,100,4.9,PH,1724947777
401,itoman,26.1247,127.6694,30.01,89,20,6.69,JP,1724947843
402,valdivia,-39.8142,-73.2459,12.05,54,7,2.67,CL,1724947700
403,oleksandrivka,48.9634,32.2349,29.89,21,100,4.55,UA,1724947845
404,orichi,58.4036,49.0572,15.56,64,54,0.62,RU,1724947846
405,hami,42.8,93.45,33.72,15,6,5.61,CN,1724947847
406,juneau,58.3019,-134.4197,11.34,97,100,4.63,US,1724947848
407,begamganj,23.6,78.3333,24.7,88,69,2.55,IN,1724947849
408,nar'yan-mar,67.6713,53.087,7.39,84,91,5.08,RU,1724947850
409,mahajanga,-15.7167,46.3167,25.89,66,31,3.55,MG,1724947851
410,richards bay,-28.783,32.0377,13.25,69,100,5.9,ZA,1724947852
411,najran,17.4924,44.1277,32.2,16,51,3.57,SA,1724947853
412,west point,33.6076,-88.6503,33.26,52,40,0.0,US,1724947854
413,kill devil hills,36.0307,-75.676,31.01,66,0,2.06,US,1724947855
414,rongelap,11.1635,166.8941,28.13,78,75,4.06,MH,1724947857
415,hit,33.6416,42.8251,36.17,15,0,5.41,IQ,1724947858
416,cidreira,-30.1811,-50.2056,15.94,78,100,2.7,BR,1724947859
417,east tamworth,-31.0894,150.9436,5.77,87,0,3.6,AU,1724947860
418,sendafa,9.15,39.0333,13.45,90,99,2.06,ET,1724947861
419,selkirk,50.1436,-96.8845,17.88,94,100,0.45,CA,1724947777
420,rincon,32.296,-81.2354,32.19,73,75,1.54,US,1724947746
421,moranbah,-22.0016,148.0466,18.51,62,0,2.36,AU,1724947864
422,kavieng,-2.5744,150.7967,27.42,83,97,6.99,PG,1724947865
423,puerto leguizamo,-0.1934,-74.7819,33.52,40,3,1.14,CO,1724947866
424,chui,-33.6971,-53.4616,16.19,81,100,4.0,UY,1724947732
425,howard springs,-12.497,131.047,26.95,83,61,1.49,AU,1724947868
426,northam,51.0333,-4.2167,18.67,76,2,5.06,GB,1724947871
427,swakopmund,-22.6833,14.5333,13.88,77,0,0.45,NA,1724947632
428,torghay,49.6339,63.4981,26.02,41,28,3.54,KZ,1724947873
429,nizhnyaya omka,55.4338,74.9426,13.02,95,27,4.34,RU,1724947874
430,margate,51.3813,1.3862,23.26,54,0,4.53,GB,1724947875
431,inarajan village,13.2736,144.7484,28.54,92,99,5.87,GU,1724947876
432,la paz,-16.5,-68.15,14.99,44,20,3.09,BO,1724947697
433,kamba,11.8486,3.6576,28.32,73,87,4.34,NG,1724947878
434,shihezi,44.3,86.0333,19.17,69,100,1.57,CN,1724947879
435,queenstown,-31.8976,26.8753,7.0,25,0,3.23,ZA,1724947880
436,noosa heads,-26.3833,153.15,19.28,66,0,2.15,AU,1724947881
437,masuda,34.6667,131.85,27.21,83,100,6.99,JP,1724947883
438,kristiansund,63.1115,7.732,15.63,88,75,4.63,NO,1724947884
439,ganjam,19.3833,85.0667,26.83,88,100,2.03,IN,1724947885
440,sao vicente,-23.9631,-46.3919,22.21,26,1,3.07,BR,1724947886
441,kushiro,42.975,144.3747,19.45,100,100,0.52,JP,1724947887
442,chernomorskoye,45.5039,32.6997,25.7,58,32,8.49,UA,1724947888
443,nizhnesortymskiy,62.4397,71.7603,11.62,72,18,8.86,RU,1724947889
444,ponte de sor,39.2496,-8.0101,27.34,32,0,4.0,PT,1724947890
445,iranshahr,27.2025,60.6848,37.53,9,4,9.49,IR,1724947891
446,ta`u,-14.2336,-169.5144,25.73,76,100,7.2,AS,1724947892
447,fort-de-france,14.6089,-61.0733,28.97,79,75,4.63,MQ,1724947724
448,midvagur,62.0511,-7.1939,12.46,87,100,3.09,FO,1724947894
449,port isabel,26.0734,-97.2086,32.02,73,75,3.58,US,1724947895
450,weno,7.4515,151.8468,25.97,89,75,0.0,FM,1724947897
451,illintsi,49.1048,29.2177,25.78,38,99,0.66,UA,1724947898
452,weyburn,49.6668,-103.8511,11.58,74,99,4.95,CA,1724947899
453,vadso,70.0744,29.7487,13.09,71,99,5.66,NO,1724947900
454,contamana,-7.3333,-75.0167,35.86,32,3,1.2,PE,1724947901
455,eirunepe,-6.6603,-69.8736,37.68,28,0,0.76,BR,1724947902
456,raduzhny,62.0961,77.475,12.81,97,100,3.44,RU,1724947903
457,tibanbang,6.6315,126.1055,25.76,85,100,3.59,PH,1724947904
458,kuanda,56.3161,116.0806,8.94,84,44,1.79,RU,1724947905
459,ola,59.5833,151.2833,10.95,63,100,3.72,RU,1724947906
460,coracora,-15.0333,-73.7833,18.96,34,39,3.86,PE,1724947907
461,carloforte,39.145,8.3058,25.71,63,0,1.78,IT,1724947908
462,tosontsengel,48.7567,98.2839,12.06,50,44,1.93,MN,1724947909
463,tinajo,29.0788,-13.7081,26.49,57,40,11.83,ES,1724947911
464,prince rupert,54.3161,-130.3201,13.05,100,100,1.03,CA,1724947836
465,hasaki,35.7333,140.8333,25.46,93,100,4.28,JP,1724947914
466,palpa,-14.5336,-75.1856,22.48,48,61,2.82,PE,1724947915
467,kapa'a,22.0752,-159.319,26.18,87,75,4.12,US,1724947916
468,usakos,-22.0,15.6,28.08,9,0,6.81,NA,1724947917
469,kailua-kona,19.6406,-155.9956,26.44,73,20,1.54,US,1724947819
470,uttar char fasson,22.2332,90.7132,28.24,79,34,3.26,BD,1724947919
471,altai,46.3722,96.2583,18.21,33,100,1.73,MN,1724947920
472,timmins,48.4669,-81.3331,17.38,41,0,2.47,CA,1724947921
473,gadzhiyevo,69.2551,33.3362,13.15,73,43,2.75,RU,1724947922
474,perros-guirec,48.8145,-3.4396,19.27,63,0,3.6,FR,1724947924
475,laguna,38.421,-121.4238,21.47,70,0,2.57,US,1724947925
476,taggia,43.8485,7.8545,31.08,51,2,3.12,IT,1724947926
477,nuevitas,21.5453,-77.2644,29.29,77,98,5.82,CU,1724947927
478,maintirano,-18.0667,44.0167,24.67,67,72,5.41,MG,1724947928
479,teknaf,20.8624,92.3058,26.97,88,100,3.09,BD,1724947929
480,ha'il,27.5219,41.6907,37.01,19,0,4.12,SA,1724947834
481,pindi gheb,33.2402,72.2661,27.13,78,29,5.03,PK,1724947932
482,nasarawa,8.5294,7.7242,24.12,94,99,2.54,NG,1724947933
483,kerikeri,-35.2268,173.9474,12.73,91,100,0.45,NZ,1724947934
484,broome,42.2506,-75.833,22.46,88,100,0.45,US,1724947935
485,ust-tsilma,65.441,52.1498,11.38,85,97,3.48,RU,1724947938
486,yemetsk,63.4721,41.7941,15.53,74,54,1.56,RU,1724947939
487,amahai,-3.3333,128.9167,25.48,86,100,2.99,ID,1724947940
488,banda aceh,5.5577,95.3222,26.66,79,70,5.05,ID,1724947941
489,macusani,-14.0833,-70.4333,10.53,20,0,5.25,PE,1724947942
490,newman,37.3138,-121.0208,25.36,32,0,1.49,US,1724947943
491,crane,31.3974,-102.3501,27.23,59,12,6.99,US,1724947944
492,eraan,9.0629,117.7016,25.7,91,100,5.74,PH,1724947945
493,feijo,-8.1642,-70.3536,37.2,28,0,0.67,BR,1724947946
494,mariental,-24.6333,17.9667,22.5,14,0,3.67,NA,1724947947
495,okhotsk,59.3833,143.3,13.2,93,100,5.74,RU,1724947948
496,aleksandrovsk-sakhalinskiy,50.8975,142.1561,19.0,81,100,7.88,RU,1724947950
497,etinan,4.8426,7.8525,27.03,79,97,1.49,NG,1724947951
498,karimganj,24.8667,92.35,26.56,91,75,1.19,IN,1724947952
499,ishigaki,24.3448,124.1572,29.8,77,99,6.63,JP,1724947953
500,camiri,-20.05,-63.5167,27.88,36,3,0.0,BO,1724947954
501,angra do heroismo,38.65,-27.2167,23.94,69,99,1.13,PT,1724947956
502,saudarkrokur,65.7461,-19.6394,11.46,56,4,0.13,IS,1724947957
503,malango,-2.9627,119.9001,18.93,100,96,0.62,ID,1724947958
504,kendal,54.3268,-2.7476,14.93,84,39,6.12,GB,1724947960
505,idanre,7.1127,5.1159,24.59,82,100,1.39,NG,1724947961
506,oranjemund,-28.55,16.4333,14.54,54,0,11.99,NA,1724947963
507,eyl,7.9803,49.8164,25.86,79,46,11.94,SO,1724947964
508,bayside,40.8424,-124.0637,12.32,100,100,2.06,US,1724947965
509,raja,8.4596,25.678,23.99,91,89,1.2,SS,1724947966
510,yatou,37.15,122.3833,19.54,88,0,1.47,CN,1724947967
511,conduaga,8.862,117.4893,25.78,90,100,3.44,PH,1724947969
512,chandler,33.3062,-111.8412,35.09,33,40,4.12,US,1724947745
513,binji,13.2228,4.9096,30.84,56,96,5.17,NG,1724947971
514,inari,68.906,27.0288,16.48,66,100,1.64,FI,1724947972
515,santarem,-2.4431,-54.7083,31.07,70,20,4.12,BR,1724947951
516,sorong,-0.8833,131.25,25.27,91,100,4.32,ID,1724947975
517,twentynine palms,34.1356,-116.0542,32.92,19,0,0.71,US,1724947976
518,port shepstone,-30.7414,30.455,15.17,66,99,5.47,ZA,1724947977
519,guerrero negro,27.9769,-114.0611,22.44,68,6,6.28,MX,1724947978
520,alo,6.5486,4.2686,25.34,85,99,4.46,NG,1724947979
521,rafsanjan,30.4067,55.9939,29.98,25,1,6.84,IR,1724947980
522,ocean shores,46.9737,-124.1563,17.79,74,0,4.63,US,1724947907
523,saint-pierre,-21.3393,55.4781,21.82,68,20,3.09,RE,1724947983
524,soller,39.7662,2.7152,31.59,50,86,2.44,ES,1724947984
525,askoy,60.4092,5.226,15.16,94,75,3.09,NO,1724947985
526,dapchi,12.4904,11.4944,22.73,98,100,11.2,NG,1724947988
527,punta gorda isles,26.9176,-82.0784,32.03,71,40,5.66,US,1724947989
528,alenquer,-1.9417,-54.7383,35.72,33,20,2.43,BR,1724947990
529,codrington,-38.2667,141.9667,14.56,89,100,12.15,AU,1724947991
530,peniche,39.3558,-9.3811,22.89,80,21,7.63,PT,1724947992
531,guane,22.2025,-84.0875,31.63,63,63,4.51,CU,1724947993
532,puerto aysen,-45.4,-72.7,9.04,87,43,0.38,CL,1724947994
533,labuan,5.2767,115.2417,27.99,72,100,6.01,MY,1724947995
534,ust'-uda,54.1742,103.0304,10.45,92,7,0.57,RU,1724947996
535,tamanrasset,22.785,5.5228,30.95,23,40,6.69,DZ,1724947997
536,tadine,-21.55,167.8833,18.26,72,7,2.17,NC,1724947999
537,halvad,23.0167,71.1833,25.93,81,100,8.46,IN,1724948000
538,talcahuano,-36.7167,-73.1167,11.82,76,40,5.14,CL,1724948001
539,chandur,19.7333,79.1833,25.96,85,100,1.18,IN,1724948002
540,uliastay,47.7417,96.8444,14.89,38,52,2.84,MN,1724948003
541,gokwe,-18.2048,28.9349,24.61,17,18,1.23,ZW,1724948004
542,mount isa,-20.7333,139.5,13.87,58,7,0.0,AU,1724948005
543,i-n-salah,27.1935,2.4607,42.87,12,4,2.38,DZ,1724948006
544,torbat-e heydariyeh,35.274,59.2195,18.16,24,0,9.47,IR,1724948007
545,kambove,-10.8764,26.5969,26.33,21,11,1.35,CD,1724948008
546,lompoc,34.6391,-120.4579,14.23,100,100,0.0,US,1724947920
547,la sarre,48.8002,-79.1996,17.02,47,0,2.06,CA,1724948011
548,candelaria,13.9311,121.4233,24.29,98,100,2.08,PH,1724948013
549,palmer,42.1584,-72.3287,21.27,59,75,0.45,US,1724948014
550,olyokminsk,60.3736,120.4264,8.43,93,99,1.7,RU,1724948015
551,vila franca do campo,37.7167,-25.4333,25.23,61,98,1.47,PT,1724948016
552,kegen,43.0197,79.2203,11.44,59,98,1.57,KZ,1724948017
553,berdigestyakh,62.0989,126.6992,5.25,63,60,0.24,RU,1724948018
554,el calafate,-50.3408,-72.2768,4.67,70,100,2.9,AR,1724947907
555,selibaby,15.159,-12.1829,30.77,64,84,5.76,MR,1724948020
556,kuala belait,4.5833,114.1833,25.34,83,100,1.74,BN,1724948021
557,korla,41.7597,86.1469,30.49,26,100,7.92,CN,1724948022
558,colon,9.3592,-79.9014,33.53,71,95,3.44,PA,1724947908
559,la palma,33.8464,-118.0467,20.33,84,100,0.89,US,1724948024
560,at taj,24.2049,23.2857,36.25,23,26,10.47,LY,1724948025
561,taulaga,-11.0553,-171.0883,27.53,76,6,8.97,AS,1724948026
562,wad az zaki,14.4619,32.2065,26.87,73,100,2.96,SD,1724948028
563,ventspils,57.3894,21.5606,25.96,57,0,2.06,LV,1724948029
564,barcelos,41.5388,-8.6151,25.38,55,7,3.96,PT,1724948030
565,hardoi,27.4167,80.1167,29.68,66,25,0.68,IN,1724948031
566,tatarka,44.9589,41.9517,26.9,31,4,8.69,RU,1724948032
567,labrador city,52.9463,-66.9114,16.77,42,3,4.92,CA,1724947784
568,kodinsk,58.6881,99.1844,10.02,92,4,1.29,RU,1724948036
569,dalmatovo,56.26,62.9362,15.96,64,100,4.43,RU,1724948037
570,san luis de la loma,17.2706,-100.8939,30.15,59,22,1.72,MX,1724948038
571,puerto baquerizo moreno,-0.9,-89.6,21.55,83,75,8.23,EC,1724947744
572,podporozh'ye,60.9112,34.1706,17.61,67,48,1.91,RU,1724948041
573,machalpur,24.1333,76.3,25.21,86,17,2.97,IN,1724948042
574,dapa,9.7594,126.0531,27.69,79,100,5.3,PH,1724948043
575,revda,56.801,59.9303,12.54,76,99,2.17,RU,1724948044
576,sao paulo de olivenca,-3.3783,-68.8725,37.08,26,2,1.85,BR,1724948045
